yr,periodDesc,rgDesc,rtTitle,cmdCode,cmdDescE,Subregion,Region,TradeValue,rtLat,rtLon,ptLon,ptLat
2001,2001,Re-Import,Cyprus,92,"Musical instruments, parts and accessories",World,World,267,34.9823018,33.1451285,,
2014,2014,Re-Import,Georgia,92,Musical instruments; parts and accessories of such articles,World,World,573,32.3293809,-83.1137366,,
2020,2020,Re-Import,Georgia,92,Musical instruments; parts and accessories of such articles,World,World,250,32.3293809,-83.1137366,,
2018,2018,Re-Import,Lebanon,92,Musical instruments; parts and accessories of such articles,World,World,5174,33.8750629,35.843409,,
2012,2012,Re-Import,Bahrain,92,Musical instruments; parts and accessories of such articles,World,World,44824,26.1551249,50.5344606,,
2015,2015,Re-Import,Armenia,92,Musical instruments; parts and accessories of such articles,World,World,3115,40.7696272,44.6736646,,
2018,2018,Re-Import,Pakistan,92,Musical instruments; parts and accessories of such articles,World,World,387,30.3308401,71.247499,,
